[
    {
        "name": "ACHCHUVELY BRANCH",
        "latitude": 9.776752431195,
        "longitude": 80.11450971477,
        "address": "NO 13, RAJA VEETHY, ACHCHUVELY."
    },
    {
        "name": "ADITHYA AYURVEDIC HOSPITAL STANDALONE ATM",
        "latitude": 8.3259237,
        "longitude": 80.4153108,
        "address": "ANURADHAPURA"
    },
    {
        "name": "AHANGAMA STANDALONE ATM",
        "latitude": 5.97199,
        "longitude": 80.36463,
        "address": "NO 71, MATARA ROAD,\u00a0AHANGAMA"
    },
    {
        "name": "AIA INSURANCE TOWER STANDALONE ATM",
        "latitude": 6.91289899,
        "longitude": 79.85608495,
        "address": "NO 92, DHARMAPALA MAWATHA, COLOMBO 02"
    },
    {
        "name": "AKKARAIPATTU BRANCH",
        "latitude": 7.222984281647,
        "longitude": 81.850252998993,
        "address": "NO 4, MAIN STREET, AKKARAIPATTU."
    },
    {
        "name": "AKURANA (MINICOM) BRANCH",
        "latitude": 7.361828457381,
        "longitude": 80.617879880592,
        "address": "NO 189, MATALE ROAD, AKURANA"
    },
    {
        "name": "AKURESSA BRANCH",
        "latitude": 6.100116,
        "longitude": 80.477506,
        "address": "NO 18B, MAIN STREET, AKURESSA."
    },
    {
        "name": "ALAWWA BRANCH",
        "latitude": 7.294538826882,
        "longitude": 80.241646422073,
        "address": "NO 61B, KURUNEGALA ROAD, ALAWWA."
    },
    {
        "name": "ALUTHGAMA BRANCH",
        "latitude": 6.43381,
        "longitude": 79.997573,
        "address": "NO 335,GALLE ROAD, ALUTHGAMA."
    },
    {
        "name": "AMBALANGODA BRANCH",
        "latitude": 6.234395,
        "longitude": 80.054457,
        "address": "NO 26, GALLE ROAD,\u00a0AMBALANGODA"
    },
    {
        "name": "AMBALANTOTA BRANCH",
        "latitude": 6.122844,
        "longitude": 81.029612,
        "address": "NO 157, THISSA ROAD, AMBALANTOTA"
    },
    {
        "name": "AMBEPUSSA STANDALONE ATM",
        "latitude": 7.24096,
        "longitude": 80.20928,
        "address": "CEYLON HOTEL CORPORATION (AVANHALA)AMBEPUSSA"
    },
    {
        "name": "AMPARA BRANCH",
        "latitude": 7.29122117023,
        "longitude": 81.677899612114,
        "address": "NO 15, D S SENANAYAKA VEEDIYA, AMPARA."
    },
    {
        "name": "ANAMADUWA BRANCH",
        "latitude": 7.8800444602966,
        "longitude": 80.012298583984,
        "address": "NO 78, USWEWA ROAD, ANAMADUWA."
    },
    {
        "name": "ANIWATTE (NIHALS SUPER) BRANCH",
        "latitude": 7.287544315949,
        "longitude": 80.623190654442,
        "address": "NO 27/B,GEORGE E DE SILVA MAWATHA, KANDY."
    },
    {
        "name": "ANURADHAPURA BRANCH",
        "latitude": 8.337314166824,
        "longitude": 80.411304188892,
        "address": "NO 271, MAITHIRIPALA SENANAYAKE MAWATHA, ANURADHAPURA."
    },
    {
        "name": "ANURADHAPURA NEW TOWN BRANCH",
        "latitude": 8.32128981828,
        "longitude": 80.401084972546,
        "address": "NO 514/A/3, MAITHIRIPALA SENANAYAKE MAWATHA, NEW TOWN,\u00a0ANURADHAPURA."
    },
    {
        "name": "ANURADHAPURA STANDALONE ATM",
        "latitude": 8.3259237,
        "longitude": 80.4153108,
        "address": "ADITHYA AYURVEDIC HOSPITAL,ANURADHAPURA"
    },
    {
        "name": "ATHURUGIRIYA BRANCH",
        "latitude": 6.876783,
        "longitude": 79.99068,
        "address": "NO 51, MAIN STREET, ATHURUGIRIYA."
    },
    {
        "name": "ATTIDIYA BRANCH",
        "latitude": 6.840272,
        "longitude": 79.884419,
        "address": "NO 275/1, ATTIDIYA ROAD, DEHIWELA."
    },
    {
        "name": "AVISSAWELLA BRANCH",
        "latitude": 6.954988,
        "longitude": 80.206528,
        "address": "NO 76, COLOMBO ROAD, AVISSAWELLA."
    },
    {
        "name": "BADDEGAMA BRANCH",
        "latitude": 6.170908,
        "longitude": 80.178846,
        "address": "NO 76, GALLE ROAD, BADDEGAMA."
    },
    {
        "name": "BADULLA (CITY OFFICE) BRANCH",
        "latitude": 6.99374,
        "longitude": 81.05421,
        "address": "NO 288, KEPPETIPOLA ROAD, BADULLA."
    },
    {
        "name": "BADULLA BRANCH",
        "latitude": 6.985645434265,
        "longitude": 81.059293700382,
        "address": "NO 226/15, MODERN COMPLEX, MODERN STREET, BADULLA."
    },
    {
        "name": "BALANGODA BRANCH",
        "latitude": 6.65050639,
        "longitude": 80.70045554,
        "address": "NO 195, RATNAPURA ROAD, BALANGODA."
    },
    {
        "name": "BAMBALAPITIYA (MAJESTIC CITY) BRANCH",
        "latitude": 6.893963,
        "longitude": 79.854748,
        "address": "SHOP NO 3-45, 3-46, NO 10, STATION ROAD, COLOMBO 04."
    },
    {
        "name": "BAMBALAPITIYA BRANCH",
        "latitude": 6.886315,
        "longitude": 79.857624,
        "address": "NO 232, GALLE ROAD, COLOMBO 04."
    },
    {
        "name": "BANDARAGAMA BRANCH",
        "latitude": 6.716241,
        "longitude": 79.991037,
        "address": "NO 101, HORANA ROAD, BANDARAGAMA."
    },
    {
        "name": "BANDARAWATTE (LAUGFS SUPER) BRANCH",
        "latitude": 6.9406550400977,
        "longitude": 79.987064979165,
        "address": "NO 148/7, NEW KANDY ROAD, BANDARAWATTE."
    },
    {
        "name": "BANDARAWELA BRANCH",
        "latitude": 6.716241,
        "longitude": 79.991037,
        "address": "NO 393/G-1, BADULLA ROAD, BANDARAWELA"
    },
    {
        "name": "BASELINE ROAD BRANCH",
        "latitude": 6.939300520732,
        "longitude": 79.878478003666,
        "address": "NO 658, DR. DANISTER DE SILVA MAWATHA, COLOMBO 09."
    },
    {
        "name": "BATAPOLA BRANCH",
        "latitude": 6.225898,
        "longitude": 80.115761,
        "address": "NAVEEN COLOUR BANK, MAHAWATTE, BATAPOLA"
    },
    {
        "name": "BATTARAMULLA (ARPICO SUPER) BRANCH",
        "latitude": 6.902339820581,
        "longitude": 79.917104495689,
        "address": "NO 120, KADUWELA ROAD, BATTARAMULLA."
    },
    {
        "name": "BATTARAMULLA (LAUGFS SUPERMARKET) STANDALONE ATM",
        "latitude": 6.908245806602,
        "longitude": 79.93605162017,
        "address": "THALANGAMA NORTH, BATTARAMULLA."
    },
    {
        "name": "BATTARAMULLA BRANCH",
        "latitude": 6.902382409767,
        "longitude": 79.920089786703,
        "address": "NO 213, KADUWELA ROAD, BATTARAMULLA."
    },
    {
        "name": "BATTICALOA BRANCH",
        "latitude": 7.71877674932,
        "longitude": 81.700097573921,
        "address": "NO 42, BAR ROAD, BATTICALOA."
    },
    {
        "name": "BATTICALOA BRANDIX STANDALONE ATM",
        "latitude": 7.658201,
        "longitude": 81.74072,
        "address": "NO 449, NEW KALMUNI ROAD, BATTICALOA."
    },
    {
        "name": "BATTICALOA SECOND BRANCH",
        "latitude": 7.71262,
        "longitude": 81.697104,
        "address": "NO 17, CENTRAL ROAD, BATTICALOA."
    },
    {
        "name": "BATTICALOA SRI LANKA RAILWAY STATION STANDALONE ATM",
        "latitude": 7.71262,
        "longitude": 81.697104,
        "address": "BATTICALOA."
    },
    {
        "name": "BELIATTA BRANCH",
        "latitude": 6.049614,
        "longitude": 80.733805,
        "address": "NO 50, WALASMULLA ROAD, BELIATTA."
    },
    {
        "name": "BENTOTA STANDALONE ATM",
        "latitude": 6.42431,
        "longitude": 79.9977609,
        "address": "NO 176,GALLE ROAD, BENTOTA."
    },
    {
        "name": "BERUWALA (MINICOM) BRANCH",
        "latitude": 6.049614,
        "longitude": 80.733805,
        "address": "NO 197, GALLE ROAD, BERUWALA."
    },
    {
        "name": "BIYAGAMA (LAUGFS SUPER) STANDALONE ATM",
        "latitude": 6.988046578911,
        "longitude": 80.014007342979,
        "address": "BIYAGAMA"
    },
    {
        "name": "BIYAGAMA BRANCH",
        "latitude": 6.963332,
        "longitude": 80.009158,
        "address": "NO 536/30, WALGAMA, MALWANA, BIYAGAMA."
    },
    {
        "name": "BOKUNDARA (MINICOM) BRANCH",
        "latitude": 6.820194496324,
        "longitude": 79.917026460171,
        "address": "NO 348, COLOMBO ROAD, BOKUNDARA,\u00a0 PILIYANDALA."
    },
    {
        "name": "BOLLEGALA TEXTILE INTERNATIONAL\u00a0STANDALONE ATM",
        "latitude": 6.947134,
        "longitude": 79.939227,
        "address": "KELANIYA ROAD, BOLLEGALA"
    },
    {
        "name": "BOPITIYA BRANCH",
        "latitude": 7.078626,
        "longitude": 79.859193,
        "address": "NO 173/3, BOPITIYA, PAMUNUGAMA."
    },
    {
        "name": "BORALESGAMUWA (LAUGFS SUPER) BRANCH",
        "latitude": 6.841609,
        "longitude": 79.90166,
        "address": "NO 432, COLOMBO ROAD, BORALESGAMUWA."
    },
    {
        "name": "BORALESGAMUWA BRANCH",
        "latitude": 6.840586,
        "longitude": 79.899825,
        "address": "NO 54, DEHIWELA ROAD, BORALESGAMUWA"
    },
    {
        "name": "BORELLA BRANCH",
        "latitude": 6.911794,
        "longitude": 79.877273,
        "address": "NO 92, D S SENANAYAKE MAWATHA, COLOMBO 08."
    },
    {
        "name": "BORELLA RITZ CINEMA STANDALONE ATM",
        "latitude": 6.914189,
        "longitude": 79.878429,
        "address": "NO 18, N M PERERA MAWATHA, BORELLA."
    },
    {
        "name": "CDB PREMIER CENTRE STANDALONE ATM",
        "latitude": 6.913358474465,
        "longitude": 79.857014967129,
        "address": "NO 101, DHARMAPALA MAWATHA, COLOMBO 03."
    },
    {
        "name": "CEYLON HOTEL CORPORATION, AVANHALA STANDALONE ATM",
        "latitude": 7.24096,
        "longitude": 80.20928,
        "address": "AMBEPUSSA."
    },
    {
        "name": "CHANKANAI BRANCH",
        "latitude": 9.748867566456,
        "longitude": 79.968771887943,
        "address": "NO 146A, PONNALAI ROAD, CHANKANAI."
    },
    {
        "name": "CHAVAKACHCHERI BRANCH",
        "latitude": 9.659278732509,
        "longitude": 80.163653148338,
        "address": "NO 87, KANDY ROAD, CHAVAKACHCHERI."
    },
    {
        "name": "CHENKALADY BRANCH",
        "latitude": 7.784211977528,
        "longitude": 81.592074288055,
        "address": "MAIN STREET, CHENKALADY."
    },
    {
        "name": "CHILAW BRANCH",
        "latitude": 7.57395,
        "longitude": 79.79667,
        "address": "NO 44, COLOMBO ROAD, CHILAW."
    },
    {
        "name": "CHUNNAKAM BRANCH",
        "latitude": 9.746276949597,
        "longitude": 80.028394712135,
        "address": "RAJAH COMPLEX, NO 87, K K S ROAD,\u00a0CHUNNAKAM."
    },
    {
        "name": "CITY OFFICE BRANCH",
        "latitude": 6.933860861976,
        "longitude": 79.844531714916,
        "address": "NO 98, YORK STREET, COLOMBO 01."
    },
    {
        "name": "COLOMBO 07 BRANCH",
        "latitude": 6.914104032137,
        "longitude": 79.858364118591,
        "address": "NO 123, DHARMAPALA MAWATHA, COLOMBO 07."
    },
    {
        "name": "COLOMBO GOLD CENTRE (AUTOMATED BANKING CENTRE) BRANCH",
        "latitude": 6.93992622215,
        "longitude": 79.853002382442,
        "address": "COLOMBO GOLD CENTRE COMPLEX\u00a0 , NO 180/27, N H M ABDUL CADER ROAD, COLOMBO 11."
    },
    {
        "name": "DALUPOTHA FILLING STATION STANDALONE ATM",
        "latitude": 7.2258687,
        "longitude": 79.8485684,
        "address": "DALUPOTHA, NEGOMBO"
    },
    {
        "name": "DAMBULLA BRANCH",
        "latitude": 7.876993348949,
        "longitude": 80.650956882164,
        "address": "NO 680, ANURADHAPURA ROAD, DAMBULLA"
    },
    {
        "name": "DAMBULLA LANKA POLYSACKS STANDALONE ATM",
        "latitude": 7.819065,
        "longitude": 80.658061,
        "address": "DAMBULLA, MATALE"
    },
    {
        "name": "DANKOTUWA BRANCH",
        "latitude": 7.29684,
        "longitude": 79.88168,
        "address": "NO 38, NEGOMBO ROAD, DANKOTUWA."
    },
    {
        "name": "DEHIWELA (ARPICO SUPER) BRANCH",
        "latitude": 6.846777882036,
        "longitude": 79.866260541603,
        "address": "NO 147, GALLE ROAD, DEHIWELA."
    },
    {
        "name": "DEHIWELA BRANCH",
        "latitude": 6.85773,
        "longitude": 79.864679,
        "address": "NO 92, GALLE ROAD, DEHIWELA."
    },
    {
        "name": "DEIYANDARA BRANCH",
        "latitude": 6.153722,
        "longitude": 80.6021,
        "address": "NO 51, POLICE WATTA, DEIYANDARA."
    },
    {
        "name": "DELGODA (LAUGFS SUPER) STANDALONE ATM",
        "latitude": 6.988041,
        "longitude": 80.01405,
        "address": "DELGODA"
    },
    {
        "name": "DELGODA BRANCH",
        "latitude": 6.989084,
        "longitude": 80.014367,
        "address": "NO 330-2/B, GROUND FLOOR, NEW KANDY ROAD, DELGODA"
    },
    {
        "name": "DELKANDA BRANCH",
        "latitude": 6.860455269209,
        "longitude": 79.905769480392,
        "address": "NO 588, HIGH LEVEL ROAD, GANGODAWILA, NUGEGODA."
    },
    {
        "name": "DENIYAYA BRANCH",
        "latitude": 6.343368,
        "longitude": 80.5601643,
        "address": "NO 33/2, MAIN STREET, DENIYAYA."
    },
    {
        "name": "DHARGA TOWN STANDALONE ATM",
        "latitude": 6.4410554,
        "longitude": 80.017697,
        "address": "DHARGA TOWN, ALUTGAMA."
    },
    {
        "name": "DIGANA BRANCH",
        "latitude": 7.297582,
        "longitude": 80.732107,
        "address": "NO 118/B, MAHIYANGANA ROAD, DIGANANA,\u00a0RAJAWELLA"
    },
    {
        "name": "DIVULAPITIYA BRANCH",
        "latitude": 7.224114931002,
        "longitude": 80.019733859226,
        "address": "NO 15, CIRCULAR ROAD, DIVULAPITIYA."
    },
    {
        "name": "DIVULAPITIYA DAMRO FACTORY STANDALONE ATM",
        "latitude": 7.269879,
        "longitude": 80.0454716,
        "address": "HIRUALUGEDARA, WARADALA, DIVULAPITIYA."
    },
    {
        "name": "DUPLICATION ROAD BRANCH",
        "latitude": 6.900361378685,
        "longitude": 79.855488790199,
        "address": "NO 405 & 407, R A DE MEL MAWATHA, COLOMBO 03."
    },
    {
        "name": "DURDANS HOSPITAL STANDALONE ATM",
        "latitude": 6.901933,
        "longitude": 79.853531,
        "address": "ALFRED PLACE , COLOMBO 03"
    },
    {
        "name": "EHELIYAGODA BRANCH",
        "latitude": 6.854102,
        "longitude": 80.261014,
        "address": "NO 71, MAIN STREET, EHELIYAGODA."
    },
    {
        "name": "EKALA BRANCH",
        "latitude": 7.103509,
        "longitude": 79.910595,
        "address": "REGENTS COURT, NO 218, MINUWANGODA ROAD,EKALA, JA-ELA."
    },
    {
        "name": "ELITE BRANCH",
        "latitude": 6.9095635,
        "longitude": 79.867849,
        "address": "NO 07, GREGORY'S ROAD,COLOMBO 07."
    },
    {
        "name": "ELPITIYA BRANCH",
        "latitude": 6.289513,
        "longitude": 80.161172,
        "address": "NO 24, AMBALANGODA ROAD, ELPITIYA"
    },
    {
        "name": "EMBILIPITIYA BRANCH",
        "latitude": 6.331326,
        "longitude": 80.85687,
        "address": "NO 67, NONAGAMA ROAD, PALLEGAMA, EMBILIPITIYA."
    },
    {
        "name": "EMBULDENIYA BRANCH",
        "latitude": 6.8685254,
        "longitude": 79.9104733,
        "address": "NO 19A ,MADIWELA ROAD, EMBULDENIYA."
    },
    {
        "name": "ENDERAMULLA BRANCH",
        "latitude": 6.996379,
        "longitude": 79.916816,
        "address": "NO 291, ENDERAMULLA, WATTALA."
    },
    {
        "name": "ETHUL KOTTE (MINICOM) BRANCH",
        "latitude": 6.900529,
        "longitude": 79.905602,
        "address": "SRI LANKA TELECOM, REGIONAL TELECOM OFFICE, NO.851, KOTTE ROAD, ETHUL KOTTE."
    },
    {
        "name": "EXCEL WORLD\u00a0\u00a0STANDALONE ATM",
        "latitude": 6.922086749303,
        "longitude": 79.861376238987,
        "address": "DARLY ROAD, COLOMBO 10."
    },
    {
        "name": "FOREIGN BRANCH",
        "latitude": 6.935661,
        "longitude": 79.845693,
        "address": "COMMERCIAL HOUSE, NO 21, SIR RAZIK FAREED MAWATHA, COLOMBO 01."
    },
    {
        "name": "FORT SRI LANKA RAILWAY STATION STANDALONE ATM",
        "latitude": 6.933849757876,
        "longitude": 79.849716927856,
        "address": "FORT"
    },
    {
        "name": "GALAGEDARA CRYSTAL MARTIN STANDALONE ATM",
        "latitude": 7.3699683,
        "longitude": 80.5327324,
        "address": "GALAGEDARA."
    },
    {
        "name": "GALEWELA BRANCH",
        "latitude": 7.75519,
        "longitude": 80.56863,
        "address": "NO 49/57, MATALE ROAD, GALEWELA."
    },
    {
        "name": "GALLE CITY BRANCH",
        "latitude": 6.035765183335,
        "longitude": 80.216347994283,
        "address": "NO 59, WACKWELLA ROAD, GALLE."
    },
    {
        "name": "GALLE FORT BRANCH",
        "latitude": 6.02724,
        "longitude": 80.217565,
        "address": "NO 22, CHURCH STREET, FORT, GALLE."
    },
    {
        "name": "GALLE HOLCIM LANKA STANDALONE ATM",
        "latitude": 6.028043436534,
        "longitude": 80.24356151931,
        "address": "KATUGODA, GALLE."
    },
    {
        "name": "GALLE LOLC STANDALONE ATM",
        "latitude": 6.03736,
        "longitude": 80.219617,
        "address": "SRI GNANOBASHA MW, GALLE."
    },
    {
        "name": "GALLE MAIN STREET BRANCH",
        "latitude": 6.03505,
        "longitude": 80.22001,
        "address": "NO 130, MAIN STREET, GALLE"
    },
    {
        "name": "GALLE SRI LANKA RAILWAY STATION STANDALONE ATM",
        "latitude": 6.0332011,
        "longitude": 80.2145347,
        "address": "GALLE."
    },
    {
        "name": "GAMPAHA (MINICOM) BRANCH",
        "latitude": 7.093964,
        "longitude": 79.994638,
        "address": "NO 17/A, QUEEN MARY ROAD, GAMPAHA."
    },
    {
        "name": "GAMPAHA BRANCH",
        "latitude": 7.093689,
        "longitude": 79.997722,
        "address": "NO 51, QUEEN MARY'S ROAD, GAMPAHA."
    },
    {
        "name": "GAMPHA SRI LANKA RAILWAY STATION\u00a0STANDALONE ATM",
        "latitude": 7.093507,
        "longitude": 79.993676,
        "address": "GAMPHA"
    },
    {
        "name": "GAMPOLA BRANCH",
        "latitude": 7.16499,
        "longitude": 80.57055,
        "address": "NO.28K ,28H ,GANGA SIRI ROAD (RIGHT) ,GAMPOLA"
    },
    {
        "name": "GANEMULLA BRANCH",
        "latitude": 7.064762,
        "longitude": 79.961862,
        "address": "NO 289,KADAWATHA ROAD, GANEMULLA."
    },
    {
        "name": "GANEMULLA SRI LANKA RAILWAY STATION\u00a0STANDALONE ATM",
        "latitude": 7.068361,
        "longitude": 79.960752,
        "address": "GANEMULLA"
    },
    {
        "name": "GELIOYA (ARPICO SUPER) BRANCH",
        "latitude": 7.21607913134,
        "longitude": 80.597905470058,
        "address": "NO 53, KANDY ROAD, GELIOYA."
    },
    {
        "name": "GIRIULLA BRANCH",
        "latitude": 7.21607913134,
        "longitude": 80.597905470058,
        "address": "NO 105, KURUNEGALA ROAD, GIRIULLA."
    },
    {
        "name": "GODAKAWELA BRANCH",
        "latitude": 6.504041,
        "longitude": 80.65244,
        "address": "NO 77, FILLING STATION, GODAKAWELA."
    },
    {
        "name": "GOTHATUWA STANDALONE ATM",
        "latitude": 6.9221079,
        "longitude": 79.9115445,
        "address": "NO 868/1, NEW TOWN, GOTHATUWA.\u00a0"
    },
    {
        "name": "GRANDPASS BRANCH",
        "latitude": 6.948699025259,
        "longitude": 79.872840000317,
        "address": "NO 99, ST JOSEPH STREET, COLOMBO 14."
    },
    {
        "name": "HABARANA CEYLON HOTEL CORPORATION HERITAGE STANDALONE ATM\u00a0",
        "latitude": 8.04005,
        "longitude": 80.75539,
        "address": "HABARANA."
    },
    {
        "name": "HAMBANTOTA BRANCH",
        "latitude": 6.133386,
        "longitude": 81.126716,
        "address": "NO 104, MAIN STREET, HAMBANTOTA."
    },
    {
        "name": "HANWELLA (LAUGFS SUPER) STANDALONE ATM",
        "latitude": 6.902321423251,
        "longitude": 80.087481094524,
        "address": "NO 40, HIGHLEVEL ROAD, PAHATHGAMA, HANWELLA."
    },
    {
        "name": "HANWELLA BRANCH",
        "latitude": 6.9087114,
        "longitude": 80.0800126,
        "address": "NO 34, MAIN STREET, HANWELLA."
    },
    {
        "name": "HATTON BRANCH",
        "latitude": 6.896130443384,
        "longitude": 80.595027459785,
        "address": "NO 257, DIMBULLA ROAD, HATTON."
    },
    {
        "name": "HAVELOCK ROAD LOLC STANDALONE ATM",
        "latitude": 6.882041,
        "longitude": 79.869436,
        "address": "HAVELOCK ROAD."
    },
    {
        "name": "HENDALA BRANCH",
        "latitude": 6.996438,
        "longitude": 79.887724,
        "address": "NO 284, HENDALA ROAD, WATTALA."
    },
    {
        "name": "HETTIPOLA BRANCH",
        "latitude": 7.606489,
        "longitude": 80.084589,
        "address": "NO 178/1, KURUNEGALA ROAD, HETTIPOLA."
    },
    {
        "name": "HIKKADUWA BRANCH",
        "latitude": 6.13984,
        "longitude": 80.099875,
        "address": "NO 217, GALLE ROAD, HIKKADUWA."
    },
    {
        "name": "HIKKADUWA SUPER CORALS HOTEL STANDALONE ATM",
        "latitude": 6.1303293,
        "longitude": 80.1023177,
        "address": "NO 390 ,GALLE ROAD, HIKKADUWA."
    },
    {
        "name": "HINGURAKGODA BRANCH",
        "latitude": 8.04188,
        "longitude": 80.95457,
        "address": "NO 44-45, AIRPORT ROAD, HINGURAKGODA."
    },
    {
        "name": "HOMAGAMA BRANCH",
        "latitude": 6.84211,
        "longitude": 80.005817,
        "address": "NO 100, HIGH LEVEL ROAD, HOMAGAMA."
    },
    {
        "name": "HORANA (WIJEMANNA SUPER) BRANCH",
        "latitude": 6.716865,
        "longitude": 80.062178,
        "address": "NO 43,RATNAPURA ROAD, HORANA."
    },
    {
        "name": "HORANA BRANCH",
        "latitude": 6.717469,
        "longitude": 80.062444,
        "address": "NO 100, SRI SOMANANDA MAWATHA, HORANA."
    },
    {
        "name": "HULFTSDORP BRANCH",
        "latitude": 6.933096712666,
        "longitude": 79.858881784276,
        "address": "BASL MODERN OFFICE COMPLEX NO 36, ST. SEBASTIAN HILL, COLOMBO 12."
    },
    {
        "name": "HYDE PARK CORNER (ARPICO SUPER) BRANCH",
        "latitude": 6.91748,
        "longitude": 79.860971,
        "address": "NO 69, HYDE PARK CORNER, COLOMBO 02."
    },
    {
        "name": "IBBAGAMUWA BRANCH",
        "latitude": 7.54738669,
        "longitude": 80.44947713,
        "address": "H M S BUILDING, IBBAGAMUWA."
    },
    {
        "name": "JA-ELA (MINICOM) BRANCH",
        "latitude": 7.064048,
        "longitude": 79.893461,
        "address": "NO 433, COLOMBO ROAD, KAPUWATTE, JA-ELA."
    },
    {
        "name": "JA-ELA BRANCH",
        "latitude": 7.076232,
        "longitude": 79.891323,
        "address": "NO 140, NEGOMBO ROAD, JA-ELA."
    },
    {
        "name": "JAFFNA BRANCH",
        "latitude": 9.6659126,
        "longitude": 80.0128158,
        "address": "NO 474, HOSPITAL ROAD, JAFFNA."
    },
    {
        "name": "JAFFNA STANLEY ROAD BRANCH",
        "latitude": 9.66842,
        "longitude": 80.01249,
        "address": "NO 62/6, STANLEY ROAD, JAFFNA."
    },
    {
        "name": "JAIC HILTON COLOMBO STANDALONE ATM",
        "latitude": 6.9208633,
        "longitude": 79.8559552,
        "address": "UNION PLACE, COLOMBO 02"
    },
    {
        "name": "JOSEPH FRASER HOSPITAL STANDALONE ATM",
        "latitude": 6.8951858,
        "longitude": 79.8631484,
        "address": "COLOMBO 05"
    },
    {
        "name": "KADAWATHA (ARPICO SUPER) BRANCH",
        "latitude": 7.001552,
        "longitude": 79.949583,
        "address": "NO 172/6, KANDY ROAD, KADAWATHA."
    },
    {
        "name": "KADAWATHA BRANCH",
        "latitude": 7.003602,
        "longitude": 79.954111,
        "address": "NO 433/1/ A/3, IHALA KARAGAHAMUNA, GANEMULLA ROAD, KADAWATHA."
    },
    {
        "name": "KADURUWELA BRANCH",
        "latitude": 7.93532149733,
        "longitude": 81.028552902862,
        "address": "NO 411, MAIN STREET, KADURUWELA."
    },
    {
        "name": "KADUWELA BRANCH",
        "latitude": 6.937387,
        "longitude": 79.9795,
        "address": "NO 508/5, AVISSAWELLA ROAD, KADUWELA."
    },
    {
        "name": "KAHAWATTE BRANCH",
        "latitude": 6.582027,
        "longitude": 80.573411,
        "address": "NO 774/2, MAIN STREET, KAHAWATTE."
    },
    {
        "name": "KALAWANA BRANCH",
        "latitude": 6.530294,
        "longitude": 80.39515,
        "address": "NO 78, MATHUGAMA ROAD, MANANA, KALAWANA."
    },
    {
        "name": "KALMUNAI BRANCH",
        "latitude": 7.41739,
        "longitude": 81.8242,
        "address": "NO 132, BATTICALOA ROAD, KALMUNAI."
    },
    {
        "name": "KALUTARA (ARPICO SUPER) BRANCH",
        "latitude": 6.602235,
        "longitude": 79.955739,
        "address": "NO 157, GALLE ROAD, KALUTARA NORTH."
    },
    {
        "name": "KALUTARA BRANCH",
        "latitude": 6.57967724637,
        "longitude": 79.961846424103,
        "address": "NO 314, GALLE ROAD, KALUTARA SOUTH."
    },
    {
        "name": "KAMBURUPITIYA BRANCH",
        "latitude": 6.077814,
        "longitude": 80.564839,
        "address": "NO 151, MATARA ROAD, KAMBURUPITIYA."
    },
    {
        "name": "KANDANA BRANCH",
        "latitude": 7.04977,
        "longitude": 79.896296,
        "address": "NO 41D, NEGOMBO ROAD\t, KANDANA."
    },
    {
        "name": "KANDY (CITY OFFICE) BRANCH",
        "latitude": 7.292330605864,
        "longitude": 80.636765314266,
        "address": "L,1-2,LEVEL 1, NO 30, DALADA VEEDIYA, KANDY."
    },
    {
        "name": "KANDY BRANCH",
        "latitude": 7.29664061749,
        "longitude": 80.636668754742,
        "address": "NO 120, KOTOGODELLA VEEDIYA, KANDY."
    },
    {
        "name": "KANTALE BRANCH",
        "latitude": 8.362492,
        "longitude": 81.004522,
        "address": "NO 72/1, MAIN STREET, KANTALE."
    },
    {
        "name": "KARAPITIYA BRANCH",
        "latitude": 7.29664061749,
        "longitude": 80.636668754742,
        "address": "NO 89, HIRIMBURA CROSS ROAD, KARAPITIYA."
    },
    {
        "name": "KATANA BRANCH",
        "latitude": 7.252533,
        "longitude": 79.909685,
        "address": "NO 210A, DELGAS JUNCTION, KATANA."
    },
    {
        "name": "KATARAGAMA BRANCH",
        "latitude": 6.415285060378,
        "longitude": 81.331942928955,
        "address": "NO 12, T R BARIS APPU MAWATHA, NEW TOWN, KATARAGAMA."
    },
    {
        "name": "KATTANKUDY BRANCH",
        "latitude": 7.686,
        "longitude": 81.72723,
        "address": "NO 42, FAWZI MAWATHA,KATTANKUDY."
    },
    {
        "name": "KATUBEDDA (MINICOM) BRANCH",
        "latitude": 6.793612086901,
        "longitude": 79.887012792751,
        "address": "NO. 521, GALLE ROAD, RAWATHAWATTE, MORATUWA"
    },
    {
        "name": "KATUBEDDA BRANCH",
        "latitude": 6.807762397555,
        "longitude": 79.883767319679,
        "address": "NO 721, GALLE ROAD, KALDEMULLA, MORATUWA."
    },
    {
        "name": "KATUGASTOTA (AUTOMATED BANKING CENTRE) BRANCH",
        "latitude": 7.3097,
        "longitude": 80.63736,
        "address": "NO 187, KATUGASTOTA ROAD, KANDY."
    },
    {
        "name": "KATUGASTOTA BRANCH",
        "latitude": 7.32561,
        "longitude": 80.62734,
        "address": "NO 172, MADAWALA ROAD, KATUGASTOTA."
    },
    {
        "name": "KATUKURUNDA (MINICOM) BRANCH",
        "latitude": 6.5603515,
        "longitude": 79.9689842,
        "address": "NO 950, GALLE ROAD, KATUKURUNDA,\u00a0 KALUTARA."
    },
    {
        "name": "KATUNAYAKE (BIA-ARRIVAL LOUNGE) BRANCH",
        "latitude": 7.174555539126,
        "longitude": 79.887382937268,
        "address": "ARRIVAL LOUNGE, BANDARANAIKE INTERNATIONAL AIRPORT,\tKATUNAYAKE."
    },
    {
        "name": "KATUNAYAKE FTZ BRANCH",
        "latitude": 7.17067,
        "longitude": 79.888625,
        "address": "UNIT 15, GCE PLAZA COMPLEX, EPZ, KATUNAYAKE."
    },
    {
        "name": "KATUNERIYA (AJANTHA SUPER) BRANCH",
        "latitude": 7.3712071579308,
        "longitude": 79.83205861417,
        "address": "\"AJANTHA SUPER\" NO 460 B,\u00a0CHILAW ROAD,\u00a0KATUNERIYA."
    },
    {
        "name": "KEGALLE BRANCH",
        "latitude": 7.253163,
        "longitude": 80.348572,
        "address": "NO 186, MAIN STREET, KEGALLE."
    },
    {
        "name": "KEKIRAWA BRANCH",
        "latitude": 8.040487802227,
        "longitude": 80.597293926403,
        "address": "NO 12, DAMBULLA ROAD, KEKIRAWA."
    },
    {
        "name": "KELANIYA BRANCH",
        "latitude": 6.967562741482,
        "longitude": 79.905994953588,
        "address": "NO 5, KANDY ROAD, BULUGAHA JUNCTION, KELANIYA."
    },
    {
        "name": "KEYZER STREET BRANCH",
        "latitude": 6.936333,
        "longitude": 79.850129,
        "address": "NO 32, KEYZER STREET, COLOMBO 11."
    },
    {
        "name": "KILINOCHCHI BRANCH",
        "latitude": 9.403336452767,
        "longitude": 80.407908512279,
        "address": "NO 353, KANDY ROAD, KILINOCHCHI."
    },
    {
        "name": "KILINOCHCHI SECOND BRANCH",
        "latitude": 9.383441995774,
        "longitude": 80.405258489773,
        "address": "NO 08, KANAGAPURAM ROAD, UTHAYANAGAR EAST,KILINOCHCHI."
    },
    {
        "name": "KIRIBATHGODA (LAUGFS SUPER) BRANCH",
        "latitude": 6.979788099862,
        "longitude": 79.929131520912,
        "address": "NO 60,KANDY ROAD,\u00a0KIRIBATHGODA."
    },
    {
        "name": "KIRIBATHGODA BRANCH",
        "latitude": 6.975542,
        "longitude": 79.924773,
        "address": "NO 134, KANDY ROAD, KIRIBATHGODA."
    },
    {
        "name": "KIRILLAWALA BRANCH",
        "latitude": 7.0347595,
        "longitude": 79.9885831,
        "address": "NO 122/B, PAHALA IMBULGODA,\u00a0KIRILLAWALA."
    },
    {
        "name": "KIRINDIWELA BRANCH",
        "latitude": 7.042163,
        "longitude": 80.128779,
        "address": "NO 115, RADAWANA ROAD, KIRINDIWELA."
    },
    {
        "name": "KIRULAPONE (MINICOM) BRANCH",
        "latitude": 6.875701,
        "longitude": 79.880806,
        "address": "NO 236, HIGH LEVEL ROAD, KIRULAPONE."
    },
    {
        "name": "KIRULAPONE BRANCH",
        "latitude": 6.878235817728,
        "longitude": 79.875924540684,
        "address": "NO 98, HIGH LEVEL ROAD, KIRULAPONE."
    },
    {
        "name": "KOCHCHIKADE BRANCH",
        "latitude": 7.266341,
        "longitude": 79.860704,
        "address": "NO 96A, CHILAW ROAD, KOCHCHIKADE."
    },
    {
        "name": "KODIKAMAM BRANCH",
        "latitude": 9.684186016501,
        "longitude": 80.221688104793,
        "address": "POINT PEDRO ROAD, KODIKAMAM."
    },
    {
        "name": "KOGGALA BRANCH",
        "latitude": 5.987735,
        "longitude": 80.325717,
        "address": "NO H/8, EXPORT PROMOTION ZONE, GALLE ROAD, KOGGALA."
    },
    {
        "name": "KOHUWALA (KEELLS SUPER) BRANCH",
        "latitude": 6.869585445407,
        "longitude": 79.880858058899,
        "address": "NO 135, DUTUGEMUNU STREET, KOHUWALA."
    },
    {
        "name": "KOHUWALA BRANCH",
        "latitude": 6.866287,
        "longitude": 79.884953,
        "address": "NO 12, SUNETHRADEVI ROAD,\tKOHUWALA."
    },
    {
        "name": "KOLLUPITIYA (LIBERTY PLAZA) BRANCH",
        "latitude": 6.911052322262,
        "longitude": 79.851658595767,
        "address": "NO 250/9, G-74, R A DE MEL MAWATHA, COLOMBO 03."
    },
    {
        "name": "KOLLUPITIYA BRANCH",
        "latitude": 6.908717,
        "longitude": 79.850682,
        "address": "NO 285, GALLE ROAD,\tCOLOMBO 03."
    },
    {
        "name": "KOLONNAWA BRANCH",
        "latitude": 6.932443,
        "longitude": 79.892502,
        "address": "NO 194, KOLONNAWA ROAD, KOLONNAWA."
    },
    {
        "name": "KOTAHENA BRANCH",
        "latitude": 6.947764484097,
        "longitude": 79.861099971458,
        "address": "NO 198, GEORGE R DE SELVA MAWATHA, COLOMBO 13."
    },
    {
        "name": "KOTIKAWATTE BRANCH",
        "latitude": 6.935616,
        "longitude": 79.920996,
        "address": "NO 895, AVISSAWELLA ROAD, KOTIKAWATTE."
    },
    {
        "name": "KOTTAWA BRANCH",
        "latitude": 6.841572,
        "longitude": 79.963375,
        "address": "NO 950/950A, HIGH LEVEL ROAD, KOTTAWA."
    },
    {
        "name": "KULIYAPITIYA BRANCH",
        "latitude": 7.47334,
        "longitude": 80.04462,
        "address": "NO 74, HETTIPOLA ROAD, KULIYAPITIYA."
    },
    {
        "name": "KUNDASALE BRANCH",
        "latitude": 7.47334,
        "longitude": 80.04462,
        "address": "NO 67/7/5, DIGANA ROAD, NATTARAMPOTHA, KUNDASALE."
    },
    {
        "name": "KURUNEGALA (CITY OFFICE) BRANCH",
        "latitude": 7.480511,
        "longitude": 80.35938,
        "address": "NO 140, C, COLOMBO ROAD,\u00a0KURUNEGALA."
    },
    {
        "name": "KURUNEGALA (MINICOM) BRANCH",
        "latitude": 7.489055929393,
        "longitude": 80.360591663048,
        "address": "NO 105, PUTTALAM ROAD, KURUNEGALA."
    },
    {
        "name": "KURUNEGALA BRANCH",
        "latitude": 7.48705345,
        "longitude": 80.36644693,
        "address": "NO 04, SURATISSA MAWATHA,\u00a0KURUNEGALA"
    },
    {
        "name": "KURUWITA BRANCH",
        "latitude": 6.755884,
        "longitude": 80.37595,
        "address": "K D U FUEL MART PARADISE, KURUWITA."
    },
    {
        "name": "MADAMPE BRANCH",
        "latitude": 7.497579,
        "longitude": 79.839508,
        "address": "NEW TOWN, CHILAW ROAD, MADAMPE."
    },
    {
        "name": "MAHARAGAMA ( LAUGFS SUPER) BRANCH",
        "latitude": 6.845073507239,
        "longitude": 79.930534316227,
        "address": "NO 129, HIGH LEVEL ROAD, MAHARAGAMA."
    },
    {
        "name": "MAHARAGAMA BRANCH",
        "latitude": 6.850429,
        "longitude": 79.922737,
        "address": "NO 154, HIGH LEVEL ROAD, MAHARAGAMA."
    },
    {
        "name": "MAHIYANGANAYA BRANCH",
        "latitude": 7.339969,
        "longitude": 80.991745,
        "address": "NO 13, KANDY ROAD, MAHIYANGANAYA."
    },
    {
        "name": "MAJESTIC\u00a0 CITY STANDALONE ATM",
        "latitude": 6.893963,
        "longitude": 79.854748,
        "address": "BAMBALAPITIYA."
    },
    {
        "name": "MAKOLA BRANCH",
        "latitude": 6.978562,
        "longitude": 79.939046,
        "address": "NO 31, MAKOLA NORTH, MAKOLA."
    },
    {
        "name": "MALABE BRANCH",
        "latitude": 6.904821742218,
        "longitude": 79.95257419534,
        "address": "NO 821, KADUWELA ROAD, MALABE"
    },
    {
        "name": "MANIPAY BRANCH",
        "latitude": 9.717096756319,
        "longitude": 79.995972169563,
        "address": "NO 244 & 246, YARL ROAD, MANIPAY."
    },
    {
        "name": "MANNAR BRANCH",
        "latitude": 8.980083838219,
        "longitude": 79.911911739036,
        "address": "NO 45, MAIN STREET, MANNAR."
    },
    {
        "name": "MARADANA BRANCH",
        "latitude": 6.926104,
        "longitude": 79.866743,
        "address": "NO 549, MARADANA ROAD, COLOMBO 10."
    },
    {
        "name": "MARAWILA BRANCH",
        "latitude": 7.41712,
        "longitude": 79.83042,
        "address": "MALLIKA HOUSE, HORAGOLLA, MARAWILA."
    },
    {
        "name": "MARINO MALL STANDALONE ATM",
        "latitude": 6.9001632,
        "longitude": 79.8529721,
        "address": "NO 590, GALLE ROAD, COLOMBO 03"
    },
    {
        "name": "MASKELIYA BRANCH",
        "latitude": 6.834146480331,
        "longitude": 80.571812940761,
        "address": "NO 93, MASKELIYA CO-OPERATIVE SOCIETY, MASKELIYA."
    },
    {
        "name": "MATALE BRANCH",
        "latitude": 7.469524895252,
        "longitude": 80.62294925563,
        "address": "NO 70, KING STREET, MATALE."
    },
    {
        "name": "MATARA (CITY OFFICE) BRANCH",
        "latitude": 5.943988,
        "longitude": 80.54988,
        "address": "NO 11, BEACH ROAD, MATARA."
    },
    {
        "name": "MATARA (KEELLS SUPER) BRANCH",
        "latitude": 5.948051,
        "longitude": 80.536059,
        "address": "NO 227,ANAGARIKA DHARMAPALA MAWATHA,MATARA."
    },
    {
        "name": "MATARA BRANCH",
        "latitude": 5.950134,
        "longitude": 80.543754,
        "address": "NO 18, STATION ROAD,MATARA."
    },
    {
        "name": "MATTEGODA (LAUGFS SUPER) BRANCH",
        "latitude": 6.811327,
        "longitude": 79.97555,
        "address": "NO 193/20H, BANDARANAYAKEPURA, MATTEGODA."
    },
    {
        "name": "MATUGAMA BRANCH",
        "latitude": 6.522352,
        "longitude": 80.111865,
        "address": "NO 99, KALUTARA ROAD, MATUGAMA."
    },
    {
        "name": "MAWANELLA BRANCH",
        "latitude": 7.254461430449,
        "longitude": 80.445606959984,
        "address": "NO 158, GUNARATNE BUILDING, NEW KANDY ROAD,MAWANELLA."
    },
    {
        "name": "MAWATHAGAMA BRANCH",
        "latitude": 7.43345,
        "longitude": 80.44559,
        "address": "NO 42, KANDY ROAD,MAWATHAGAMA."
    },
    {
        "name": "MEDAWACHCHIYA BRANCH",
        "latitude": 8.541957858668,
        "longitude": 80.491628302261,
        "address": "NO 100, KANDY ROAD,MEDAWACHCHIYA."
    },
    {
        "name": "MIDDENIYA BRANCH",
        "latitude": 6.250587,
        "longitude": 80.764216,
        "address": "NETHPRIYA BUILDING, WEERAKETIYA ROAD,\tMIDDENIYA."
    },
    {
        "name": "MINUWANGODA BRANCH",
        "latitude": 7.169916787995,
        "longitude": 79.949540449306,
        "address": "NO 42, SIRIWARDHANA MAWATHA, MINUWANGODA."
    },
    {
        "name": "MIRIGAMA BRANCH",
        "latitude": 7.249452,
        "longitude": 80.130812,
        "address": "NO 93, GIRIULLA ROAD, MIRIGAMA."
    },
    {
        "name": "MIRSWATTE LAUGFS-ECO STANDALONE ATM",
        "latitude": 7.07449,
        "longitude": 80.01778,
        "address": "NO 87A, KANDY ROAD, MIRSWATTE, GAMPAHA."
    },
    {
        "name": "MONARAGALA BRANCH",
        "latitude": 6.871676795633,
        "longitude": 81.351048303768,
        "address": "NO 94/5, KUMARADOLA ROAD,\u00a0MONARAGALA."
    },
    {
        "name": "MORATUWA (LAUGFS SUPER) BRANCH",
        "latitude": 6.772443,
        "longitude": 79.885144,
        "address": "NO 06, GALLE ROAD,\u00a0MORATUWA."
    },
    {
        "name": "MORATUWA BRANCH",
        "latitude": 6.780812,
        "longitude": 79.883378,
        "address": "NO 766, GALLE ROAD, IDAMA,\u00a0MORATUWA."
    },
    {
        "name": "MORAWAKA BRANCH",
        "latitude": 6.261518565696,
        "longitude": 80.491014244035,
        "address": "\"NILWALA BUILDING\",\u00a0 PANSALGODELLA WATTA, MORAWAKA."
    },
    {
        "name": "MOUNT LAVINIA BRANCH",
        "latitude": 6.840712,
        "longitude": 79.867162,
        "address": "NO 234, GALLE ROAD, MOUNT LAVINIA."
    },
    {
        "name": "MULLIYAWALAI BRANCH",
        "latitude": 9.225561256968,
        "longitude": 80.777699304745,
        "address": "MAIN STREET, MULLIYAWALAI."
    },
    {
        "name": "MUTUWAL BRANCH",
        "latitude": 6.961904,
        "longitude": 79.866901,
        "address": "NO 560,\u00a0 ALUTHMAWATHA ROAD, COLOMBO 15."
    },
    {
        "name": "NARAHENPITA BRANCH",
        "latitude": 6.89321708431,
        "longitude": 79.874870432541,
        "address": "NO 201, KIRULA ROAD, NARAHENPITA."
    },
    {
        "name": "NARAMMALA BRANCH",
        "latitude": 7.429884025419,
        "longitude": 80.214542699978,
        "address": "NO 55, NEGOMBO ROAD, NARAMMALA."
    },
    {
        "name": "NATIONAL EYE HOSPITAL STANDALONE ATM",
        "latitude": 6.918790540396,
        "longitude": 79.864829459525,
        "address": "COLOMBO 10"
    },
    {
        "name": "NATTANDIYA BRANCH",
        "latitude": 7.410134,
        "longitude": 79.863827,
        "address": "NO 82/C, MARAWILA ROAD, NATTANDIYA."
    },
    {
        "name": "NAWALA (MINICOM) BRANCH",
        "latitude": 6.886951,
        "longitude": 79.886778,
        "address": "NO 11, NARAHENPITA ROAD, NAWALA."
    },
    {
        "name": "NAWALA BRANCH",
        "latitude": 6.881175912884,
        "longitude": 79.890422131866,
        "address": "NO 157, NAWALA ROAD, NUGEGODA."
    },
    {
        "name": "NAWALAPITIYA BRANCH",
        "latitude": 7.056754829982,
        "longitude": 80.535460961983,
        "address": "NO 70A, GAMPOLA ROAD, NAWALAPITIYA."
    },
    {
        "name": "NAWALOKA HOSPITAL STANDALONE ATM",
        "latitude": 6.920234,
        "longitude": 79.853586,
        "address": "SIR JAMES PEIRIS MAWATHA, COLOMBO 02"
    },
    {
        "name": "NAWAM MAWATHA BRANCH",
        "latitude": 6.918974,
        "longitude": 79.850315,
        "address": "IBM-II BUILDING, NO 46/4, NAWAM MAWATHA , COLOMBO 02."
    },
    {
        "name": "NAWINNA (ARPICO SUPER) BRANCH",
        "latitude": 6.852618224748,
        "longitude": 79.91772140409,
        "address": "NO 310, HIGH LEVEL ROAD, NAWINNA, MAHARAGAMA."
    },
    {
        "name": "NCC CRICKET GROUND STANDALONE ATM",
        "latitude": 6.907655,
        "longitude": 79.866955,
        "address": "MAITLAND PLACE, COLOMBO 07"
    },
    {
        "name": "NEGOMBO (CITY OFFICE) BRANCH",
        "latitude": 7.210047,
        "longitude": 79.848846,
        "address": "NO 314, COLOMBO ROAD, NEGOMBO."
    },
    {
        "name": "NEGOMBO (MINICOM) BRANCH",
        "latitude": 7.206191,
        "longitude": 79.842033,
        "address": "SRI LANKA TELECOM BUILDING COMPLEX, NEGOMBO."
    },
    {
        "name": "NEGOMBO BRANCH",
        "latitude": 7.21188,
        "longitude": 79.8399,
        "address": "NO 24 & 26, FERNANDO AVENUE, NEGOMBO."
    },
    {
        "name": "NELLIADY BRANCH",
        "latitude": 9.800181417154,
        "longitude": 80.200391365215,
        "address": "NO 30, MAIN STREET, NELLIADY."
    },
    {
        "name": "NELUWA BRANCH",
        "latitude": 6.377973,
        "longitude": 80.360363,
        "address": "EPA BUILDING, PELAWATTE ROAD, NELUWA."
    },
    {
        "name": "NIKAWERATIYA BRANCH",
        "latitude": 7.748562837715,
        "longitude": 80.116243008524,
        "address": "NO 28, HEELOGAMA ROAD, NIKAWERATIYA."
    },
    {
        "name": "NITTAMBUWA (NIHALS SUPER) BRANCH",
        "latitude": 7.142995,
        "longitude": 80.096429,
        "address": "NO 638, NEW BUS STAND,\tNITTAMBUWA."
    },
    {
        "name": "NITTAMBUWA BRANCH",
        "latitude": 7.13916009853,
        "longitude": 80.093668950722,
        "address": "NO 583, KANDY ROAD, NITTAMBUWA."
    },
    {
        "name": "NOCHCHIYAGAMA BRANCH",
        "latitude": 8.264843761112,
        "longitude": 80.212775124237,
        "address": "NO 25/D, PUTTALAM ROAD, NOCHCHIYAGAMA."
    },
    {
        "name": "NUGEGODA BRANCH",
        "latitude": 6.874289376292,
        "longitude": 79.891792489217,
        "address": "NO 100, STANLEY THILAKARATNE MAWATHA, NUGEGODA."
    },
    {
        "name": "NUWARA ELIYA BRANCH",
        "latitude": 6.972740613634,
        "longitude": 80.768113089725,
        "address": "NO 36/3, BUDDHA JAYANTHI MAWATHA, NUWARA\u00a0ELIYA."
    },
    {
        "name": "OLD MOOR STREET BRANCH",
        "latitude": 6.940576,
        "longitude": 79.864284,
        "address": "NO 442/A, OLD MOOR STREET, COLOMBO 12."
    },
    {
        "name": "ONE GALLE FACE STANDALONE ATM",
        "latitude": 6.927438,
        "longitude": 79.844551,
        "address": "COLOMBO 02"
    },
    {
        "name": "ORION CITY (AUTOMATED BANKING CENTRE) BRANCH",
        "latitude": 6.941441214919,
        "longitude": 79.879068089649,
        "address": "NO 752, ORION CITY COMPLEX, DR DANISTER DE SILVA MAWATHA,\tCOLOMBO 09."
    },
    {
        "name": "PADUKKA BRANCH",
        "latitude": 6.842887,
        "longitude": 80.09383,
        "address": "NO 48, INGIRIYA ROAD, PADUKKA."
    },
    {
        "name": "PALAVI BRANCH",
        "latitude": 7.98566,
        "longitude": 79.87015,
        "address": "HOLCIM LANKA LTD, PALAVI."
    },
    {
        "name": "PANADURA (CITY OFFICE) BRANCH",
        "latitude": 6.70612,
        "longitude": 79.909055,
        "address": "NO 575C, GALLE ROAD, PANADURA."
    },
    {
        "name": "PANADURA (KEELLS SUPER) BRANCH",
        "latitude": 6.7259783151874,
        "longitude": 79.906350271565,
        "address": "NO 2/161, GALLE ROAD, WALANA, PANADURA."
    },
    {
        "name": "PANADURA BRANCH",
        "latitude": 6.715673,
        "longitude": 79.907722,
        "address": "NO 375, GALLE ROAD\tPANADURA."
    },
    {
        "name": "PANCHIKAWATTE BRANCH",
        "latitude": 6.933982,
        "longitude": 79.866138,
        "address": "NO 240, PANCHIKAWATTE ROAD,\u00a0COLOMBO 10."
    },
    {
        "name": "PANNALA BRANCH",
        "latitude": 7.328897388729,
        "longitude": 80.024446500465,
        "address": "NO 29A, KULIYAPITIYA ROAD,\u00a0PANNALA."
    },
    {
        "name": "PASSARA BRANCH",
        "latitude": 6.93496,
        "longitude": 81.15575,
        "address": "NO 278 & 280, MAIN STREET, PASSARA."
    },
    {
        "name": "PELAWATTE BRANCH",
        "latitude": 6.89175598,
        "longitude": 79.92909866,
        "address": "NO 730/A, PANNIPITIYA ROAD, PELAWATTE, BATTARAMULLA."
    },
    {
        "name": "PELIYAGODA BRANCH",
        "latitude": 6.965438140776,
        "longitude": 79.882358908653,
        "address": "NO 168, NEGOMBO ROAD, PELIYAGODA."
    },
    {
        "name": "PELMADULLA BRANCH",
        "latitude": 6.6235884,
        "longitude": 80.5428272,
        "address": "NO 17, MAIN STREET, PELMADULLA."
    },
    {
        "name": "PERADENIYA BRANCH",
        "latitude": 7.27375,
        "longitude": 80.60943,
        "address": "NO 933A, PERADENIYA ROAD, KANDY."
    },
    {
        "name": "PETTAH BRANCH",
        "latitude": 6.938004,
        "longitude": 79.856162,
        "address": "PEOPLES PARK SHOPPING COMPLEX, NO 180/1/31,\u00a0COLOMBO 11."
    },
    {
        "name": "PETTAH MAIN STREET BRANCH",
        "latitude": 6.9386482,
        "longitude": 79.8535254,
        "address": "NO 280, MAIN STREET, PETTAH, COLOMBO 11."
    },
    {
        "name": "PILIMATALAWA BRANCH",
        "latitude": 7.26504,
        "longitude": 80.55806,
        "address": "NO 172, COLOMBO ROAD, EMBILMEEGAMA, PILIMATHALAWA."
    },
    {
        "name": "PILIYANDALA BRANCH",
        "latitude": 6.798767,
        "longitude": 79.926806,
        "address": "NO 233, HORANA ROAD, PILIYANDALA."
    },
    {
        "name": "PITA KOTTE BRANCH",
        "latitude": 6.886062,
        "longitude": 79.901955,
        "address": "NO 539, KOTTE ROAD, PITA KOTTE."
    },
    {
        "name": "PITIGALA BRANCH",
        "latitude": 6.3388864,
        "longitude": 80.2226887,
        "address": "PITIGALA NEW TOWN, ELPITIYA ROAD, PITIGALA."
    },
    {
        "name": "POINT PEDRO BRANCH",
        "latitude": 9.824568,
        "longitude": 80.235893,
        "address": "NO 41, PATHIRAKAALI AMMAN ROAD, OFF POINT PEDRO ROAD,\u00a0POINT PEDRO."
    },
    {
        "name": "POLGAHAWELA BRANCH",
        "latitude": 7.33922,
        "longitude": 80.3027,
        "address": "NO 2/32, KURUNEGALA ROAD, POLGAHAWELA."
    },
    {
        "name": "POTTUVIL BRANCH",
        "latitude": 6.871043015096,
        "longitude": 81.830589724705,
        "address": "NO 36/1, MAIN STREET, POTTUVIL."
    },
    {
        "name": "PUTTLAM BRANCH",
        "latitude": 8.02687590343,
        "longitude": 79.838601602241,
        "address": "NO 116/A, KURUNEGALA ROAD, PUTTLAM."
    },
    {
        "name": "RADDOLUGAMA BRANCH",
        "latitude": 7.13883,
        "longitude": 79.90002,
        "address": "NO K 1, LAKSHMI PLACE ,RADDOLUWA, KOTUGODA."
    },
    {
        "name": "RAGAMA BRANCH",
        "latitude": 7.02741,
        "longitude": 79.92493,
        "address": "NO 51, KADAWATHA ROAD, RAGAMA."
    },
    {
        "name": "RAJAGIRIYA BRANCH",
        "latitude": 6.910032499196,
        "longitude": 79.89518548362,
        "address": "NO 478, KOTTE ROAD, RAJAGIRIYA."
    },
    {
        "name": "RAMANAYAKE MAWATHA BRANCH",
        "latitude": 6.915086326579,
        "longitude": 79.858176363632,
        "address": "NO 41, W A D RAMANAYAKE MAWATHA, COLOMBO 02."
    },
    {
        "name": "RAMBUKKANA BRANCH",
        "latitude": 7.3232,
        "longitude": 80.389121,
        "address": "NO 111/C, OPPOSITE TOWN HALL,\u00a0RAMBUKKANA."
    },
    {
        "name": "RATMALANA BRANCH",
        "latitude": 6.821208,
        "longitude": 79.872546,
        "address": "NO 381, GALLE ROAD,\u00a0RATMALANA"
    },
    {
        "name": "RATNAPURA (MINICOM) BRANCH",
        "latitude": 6.681279,
        "longitude": 80.398014,
        "address": "NO 56/2, BANDARANAYAKE MAWATHA, RATNAPURA."
    },
    {
        "name": "RATNAPURA BRANCH",
        "latitude": 6.680064,
        "longitude": 80.406688,
        "address": "NO 223, MAIN STREET, KUDUGALWATTE, RATNAPURA."
    },
    {
        "name": "REID AVENUE BRANCH",
        "latitude": 6.897922,
        "longitude": 79.859764,
        "address": "NO 104, REID AVENUE, COLOMBO 04."
    },
    {
        "name": "ROYAL COLLEGE STANDALONE ATM",
        "latitude": 6.905378,
        "longitude": 79.860062,
        "address": "COLOMBO 07, RAJAKEIYA MAWATHA"
    },
    {
        "name": "RUWANWELLA BRANCH",
        "latitude": 7.042572056857,
        "longitude": 80.255851401016,
        "address": "NO 185 & 185/1, KEGALLE-AVISSAWELLA ROAD,\u00a0 RUWANWELLA."
    },
    {
        "name": "SEEDUWA BRANCH",
        "latitude": 7.130319,
        "longitude": 79.876606,
        "address": "NO 425/1, COLOMBO ROAD, SEEDUWA."
    },
    {
        "name": "SRI LANKA TENNIS ASSOCIATION STANDALONE ATM",
        "latitude": 6.910299,
        "longitude": 79.85926,
        "address": "NO 45,SIR MARCUS FERNANDO MAWATHA, COLOMBO 07."
    },
    {
        "name": "ST. THOMAS CHURCH STANDALONE ATM",
        "latitude": 6.9443458,
        "longitude": 79.8555236,
        "address": "GINTHUPITIYA COLOMBO 13."
    },
    {
        "name": "TAJ SAMUDRA STANDALONE ATM",
        "latitude": 6.921304,
        "longitude": 79.84697,
        "address": "GALLE FACE CENTRE, COLOMBO 03"
    },
    {
        "name": "TALAWAKELLE BRANCH",
        "latitude": 6.935464,
        "longitude": 80.660968,
        "address": "NO 1/14, JAYANTHI MAWATHA, TALAWAKELLE."
    },
    {
        "name": "TANGALLE BRANCH",
        "latitude": 6.024869,
        "longitude": 80.793623,
        "address": "NO 148, MATARA ROAD, TANGALLE."
    },
    {
        "name": "TELDENIYA BRANCH",
        "latitude": 7.3104474,
        "longitude": 80.7638755,
        "address": "NO 76 & 76/1, KANDY ROAD, TELDENIYA."
    },
    {
        "name": "THALAWATHUGODA BRANCH",
        "latitude": 6.876065545295,
        "longitude": 79.935056520626,
        "address": "NO 7, SURAMYA BUILDING, KOTTE ROAD,\u00a0 THALAWATHUGODA."
    },
    {
        "name": "THAMBUTTEGAMA BRANCH",
        "latitude": 8.161992364457,
        "longitude": 80.300429714844,
        "address": "NO 24, RAJINA JUNCTION, THAMBUTTEGAMA."
    },
    {
        "name": "THIRUNELVELY BRANCH",
        "latitude": 9.68589138402,
        "longitude": 80.025838566944,
        "address": "NO 104, PALALY ROAD, THIRUNELVELY."
    },
    {
        "name": "TISSAMAHARAMA BRANCH",
        "latitude": 6.277182,
        "longitude": 81.287488,
        "address": "NO 81, MAIN STREET, TISSAMAHARAMA."
    },
    {
        "name": "TRINCOMALEE BRANCH",
        "latitude": 8.5690949,
        "longitude": 81.2334518,
        "address": "NO 420, COURT ROAD,\u00a0TRINCOMALEE."
    },
    {
        "name": "UDUGAMA BRANCH",
        "latitude": 6.201285,
        "longitude": 80.335615,
        "address": "NO 132A, GALLE ROAD, UDUGAMA."
    },
    {
        "name": "UNION PLACE (KEELLS SUPER) BRANCH",
        "latitude": 6.921605,
        "longitude": 79.856057,
        "address": "NO 199 UNION PLACE, COLOMBO 02."
    },
    {
        "name": "UNION PLACE BRANCH",
        "latitude": 6.923037302075,
        "longitude": 79.852712452412,
        "address": "NO 01, UNION PLACE, COLOMBO 02."
    },
    {
        "name": "URUBOKKA BRANCH",
        "latitude": 6.304080188667,
        "longitude": 80.634455932304,
        "address": "NUGASEWANA, URUBOKKA."
    },
    {
        "name": "VALACHCHENAI BRANCH",
        "latitude": 7.92553,
        "longitude": 81.53001,
        "address": "KANAGASURIYAM BUILDING, MAIN STREET,\u00a0 VALAICHCHENAI."
    },
    {
        "name": "VARIOSYSTEM STANDALONE ATM",
        "latitude": 7.2901463187699,
        "longitude": 80.003637922928,
        "address": "NELUMEWETTA, BADALGAMA,"
    },
    {
        "name": "VAUXHALL STREET (SLIC) BRANCH",
        "latitude": 6.924065,
        "longitude": 79.8537,
        "address": "RAKSHANA MANDIRAYA, NO 21, VAUXHALL STREET,\u00a0 COLOMBO 02."
    },
    {
        "name": "VAVUNIYA BRANCH",
        "latitude": 8.754195600503,
        "longitude": 80.497231436893,
        "address": "NO 15, STATION ROAD, VAVUNIYA."
    },
    {
        "name": "VAVUNIYA SECOND BRANCH",
        "latitude": 8.758278075073,
        "longitude": 80.500565674156,
        "address": "NO 11, HORAWAPATHANA ROAD, VAVUNIYA."
    },
    {
        "name": "VELANAI BRANCH",
        "latitude": 9.637270476435,
        "longitude": 79.901426983997,
        "address": "KURIKATTAWAN ROAD, BANGALAWADI JUNCTION, VELANAI"
    },
    {
        "name": "VEYANGODA BRANCH",
        "latitude": 7.1549606279636,
        "longitude": 80.057180346921,
        "address": "NO 97, MAIN STREEET, VEYANGODA."
    },
    {
        "name": "WADDUWA BRANCH",
        "latitude": 6.665332,
        "longitude": 79.929973,
        "address": "NO 543/1, GALLE ROAD, WADDUWA."
    },
    {
        "name": "WARAKAPOLA BRANCH",
        "latitude": 7.22817,
        "longitude": 80.20032,
        "address": "NO 87, KANDY ROAD, WARAKAPOLA."
    },
    {
        "name": "WARD PLACE BRANCH",
        "latitude": 6.916431229,
        "longitude": 79.86756678,
        "address": "NO 26, WARD PLACE, COLOMBO 07."
    },
    {
        "name": "WARIYAPOLA BRANCH",
        "latitude": 7.61742,
        "longitude": 80.24788,
        "address": "NO 92, KURUNEGALA ROAD, WARIYAPOLA."
    },
    {
        "name": "WATTALA (ARPICO SUPER) BRANCH",
        "latitude": 6.988691,
        "longitude": 79.892401,
        "address": "NO 155, OLD NEGOMBO ROAD, WATTALA."
    },
    {
        "name": "WATTALA BRANCH",
        "latitude": 6.9808077081058,
        "longitude": 79.888188692954,
        "address": "NO 185, NEGOMBO ROAD, WATTALA."
    },
    {
        "name": "WATTEGAMA BRANCH",
        "latitude": 7.34781,
        "longitude": 80.67933,
        "address": "NO 73B, KANDY ROAD, WATTEGAMA."
    },
    {
        "name": "WELIGAMA BRANCH",
        "latitude": 5.975317,
        "longitude": 80.426759,
        "address": "NO 200, HETTIVEEDIYA, WELIGAMA."
    },
    {
        "name": "WELIMADA BRANCH",
        "latitude": 6.903972338,
        "longitude": 80.91225232,
        "address": "NO 1/62, BADULLA ROAD, WELIMADA."
    },
    {
        "name": "WELIVERIYA BRANCH",
        "latitude": 7.035312,
        "longitude": 80.025896,
        "address": "NO 195, NEW KANDY ROAD, WELIVERIYA."
    },
    {
        "name": "WELLAWATTE BRANCH",
        "latitude": 6.871781,
        "longitude": 79.862071,
        "address": "NO 343, GALLE ROAD, COLOMBO 06."
    },
    {
        "name": "WELLAWATTE SECOND BRANCH",
        "latitude": 6.876718,
        "longitude": 79.865351,
        "address": "NO 115, W A SILVA MAWATHA, WELLAWATTE."
    },
    {
        "name": "WELLAWAYA BRANCH",
        "latitude": 6.7320761616917,
        "longitude": 81.103898584843,
        "address": "NO 100, MONARAGALA ROAD, WELLAWAYA."
    },
    {
        "name": "WENNAPPUWA BRANCH",
        "latitude": 7.336825484,
        "longitude": 79.84352346,
        "address": "NO 262 & 264, COLOMBO ROAD, WENNAPPUWA."
    },
    {
        "name": "WORLD TRADE CENTRE BRANCH",
        "latitude": 6.932849106,
        "longitude": 79.84370878,
        "address": "L03-WT-01, THIRD FLOOR, WEST TOWER, WORLD TRADE CENTRE."
    },
    {
        "name": "YAKKALA BRANCH",
        "latitude": 7.087398,
        "longitude": 80.034514,
        "address": "NO 252/5, KANDY ROAD, YAKKALA."
    },
    {
        "name": "YATIYANTOTA BRANCH",
        "latitude": 7.030254,
        "longitude": 80.294888,
        "address": "NO 21/01, COLOMBO ROAD, YATIYANTOTA."
    }
]